"mls"	"price"	"type"	"ownership"	"size"	"stories"	"bathrooms"	"bedroomsAboveGrade"	"bedroomsBelowGrade"	"address"	"postalcode"	"longitude"	"latitude"	"lot"	"parking1Type"	"parking1Spaces"	"parking2Type"	"parking2Spaces"	"parking3Type"	"parking3Spaces"	"rawLow"	"url"
"1219288"	"339000"	"House"	"Freehold"	"2480"	"1"	"2"	"3"	0	"255 Dogberry Hill Road"	"A1M1C5"	"-52.879045"	"47.57329"	"111 x 210"	"Detached Garage"	""	""	""	""	""	"111 X210|10,890 - 21,799 sqft (1/4 - 1/2 ac)"	"https://www.realtor.ca//real-estate/22257835/255-dogberry-hill-road-stphilips"
"1219278"	"319900"	"House"	"Freehold"	"2700"	"1"	"2"	"5"	0	"44 Toronto Street"	"A1A2T4"	"-52.712932"	"47.596773"	"50 x 150"	"Attached Garage"	""	"Garage"	"1"	""	""	"50 x 150 approx.|under 1/2 acre"	"https://www.realtor.ca//real-estate/22257845/44-toronto-street-st-johns"
"1219279"	"249900"	"House"	"Freehold"	"2015"	"1"	"3"	"3"	"1"	"30 Barnacle Road"	"A1X2B1"	"-52.997127"	"47.508568"	"50 x 124 x 49 x 124"	""	""	""	""	""	""	"50x124x49x124|4,051 - 7,250 sqft"	"https://www.realtor.ca//real-estate/22257844/30-barnacle-road-foxtrap"
"1219275"	"300000"	"House"	"Freehold"	"2376"	"2"	"1"	"3"	0	"64 Topsail Pond Road"	"A1L2B3"	"-52.906272"	"47.526861"	"1 acres"	"Detached Garage"	""	"Garage"	"2"	""	""	"1 acre|1 - 3 acres"	"https://www.realtor.ca//real-estate/22257847/64-topsail-pond-road-paradise"
"1219280"	"319900"	"House"	"Freehold"	"2488"	"2"	"3"	"3"	0	"11 Jacobs Place"	"A1N4J2"	"-52.822335"	"47.514074"	"54 x 105"	"Attached Garage"	""	"Garage"	"1"	""	""	"54 X 105|under 1/2 acre"	"https://www.realtor.ca//real-estate/22257843/11-jacobs-place-mount-pearl"
"1219264"	"309900"	"House"	"Freehold"	"2160"	"2"	"3"	"3"	0	"24 Marion's Gardens Place"	"A1X0J5"	"-52.97925"	"47.506137"	"44 x 115 x 67 x 121"	""	""	""	""	""	""	"44x115x67x121|under 1/2 acre"	"https://www.realtor.ca//real-estate/22256792/24-marions-gardens-place-conception-bay-south"
"1218914"	"210000"	"House"	"Freehold"	"2380"	"1"	"3"	"5"	"2"	"244 Freshwater Road"	"A1B1B2"	"-52.734465"	"47.563236"	"58 x 101"	""	""	""	""	""	""	"58x101"	"https://www.realtor.ca//real-estate/22254190/244-freshwater-road-st-johns"
"1219146"	"312900"	"House"	"Freehold"	"2289"	"2"	"3"	"3"	"1"	"31 Sweetenwater Crescent"	"A1W4T2"	"-52.93902"	"47.517249"	"72 x 100"	""	""	""	""	""	""	"72x100|4,051 - 7,250 sqft"	"https://www.realtor.ca//real-estate/22252380/31-sweetenwater-crescent-conception-bay-south"
"1219244"	"249900"	"House"	"Freehold"	"1551"	"1"	"2"	"3"	0	"7 Denford Estates"	"A1W4G9"	"-52.93427"	"47.525141"	"50 x 100"	""	""	""	""	""	""	"50X100|under 1/2 acre"	"https://www.realtor.ca//real-estate/22252351/7-denford-estates-conception-bay-south"
"1219211"	"209900"	"House"	"Freehold"	"1100"	"1"	"2"	"3"	0	"363A Shearstown Road"	"A0A1G0"	"-53.315071"	"47.578112"	""	"Detached Garage"	""	""	""	""	""	"0.74 acres - 46 x 482 x 85 x 501"	"https://www.realtor.ca//real-estate/22252370/363a-shearstown-road-bay-roberts"
"1219180"	"328500"	"House"	"Freehold"	"2122"	"1"	"2"	"2"	"2"	"67 Eastbourne Crescent"	"A1A5J2"	"-52.71468"	"47.611627"	"49.3 x 98.4"	""	""	""	""	""	""	"49.3 x 98.4|.5 - 9.99 acres"	"https://www.realtor.ca//real-estate/22248932/67-eastbourne-crescent-st-johns"
"1218823"	"214900"	"House"	"Freehold"	"1400"	"1.5000"	"2"	"4"	0	"58 Aldershot Street"	"A1C4S1"	"-52.724151"	"47.566372"	"52 x 124"	""	""	""	""	""	""	"52 x 124|under 1/2 acre"	"https://www.realtor.ca//real-estate/22248940/58-aldershot-street-st-johns"
"1219181"	"264900"	"House"	"Freehold"	"2020"	"1"	"2"	"3"	0	"23 Searles Place"	"A1W3H6"	"-52.966931"	"47.515525"	"111 x 43 x 178 x 195"	""	""	""	""	""	""	"111 x 43 x 178 x 195|0-4,050 sqft"	"https://www.realtor.ca//real-estate/22248931/23-searles-place-long-pond"
"1219148"	"299900"	"House"	"Freehold"	"2414"	"2"	"3"	"3"	0	"158 Swansea Street"	"A1W4S3"	"-52.931935"	"47.512404"	"50 x 100"	""	""	""	""	""	""	"50x100|4,051 - 7,250 sqft"	"https://www.realtor.ca//real-estate/22247218/158-swansea-street-conception-bay-south"
"1219008"	"259900"	"House"	"Freehold"	"2395"	"2"	"2"	"4"	0	"54 Freshwater Road"	"A1C2N5"	"-52.719509"	"47.56349"	"34 x 97 x 35 x 95"	""	""	""	""	""	""	"34x97x35x95|under 1/2 acre"	"https://www.realtor.ca//real-estate/22247229/54-freshwater-road-st-johns"
"1219083"	"359900"	"House"	"Freehold"	"1452"	"2"	"3"	"3"	0	"59 Nautilus Street"	"A1B0G5"	"-52.783945"	"47.551476"	"49 x 98"	"Attached Garage"	""	""	""	""	""	"49 X 98|under 1/2 acre"	"https://www.realtor.ca//real-estate/22247224/59-nautilus-street-st-johns"
"1219141"	"289900"	"House"	"Freehold"	"2500"	"1"	"3"	"3"	0	"90 Terra Nova Road"	"A1B1E9"	"-52.742616"	"47.55955"	"90 x 70"	"Attached Garage"	""	""	""	""	""	"90 x 70|under 1/2 acre"	"https://www.realtor.ca//real-estate/22243742/90-terra-nova-road-st-johns"
"1219075"	"299900"	"House"	"Freehold"	"1885"	"1"	"2"	"2"	0	"48 Jensen Camp Road"	"A1E0G1"	"-52.756372"	"47.547509"	"50 x 100"	"Attached Garage"	""	""	""	""	""	"50x100|4,051 - 7,250 sqft"	"https://www.realtor.ca//real-estate/22243771/48-jensen-camp-road-st-johns"
"1219127"	"214900"	"House"	"Freehold"	"952"	"1"	"1"	"3"	0	"89 Seal Cove Road"	"A1X6S6"	"-53.070523"	"47.46978"	"65 x 128 x 65 x 126"	""	""	""	""	""	""	"65 X 128 X 65 X 126|under 1/2 acre"	"https://www.realtor.ca//real-estate/22243751/89-seal-cove-road-conception-bay-south"
"1219119"	"259900"	"House"	"Freehold"	"2248"	"1"	"2"	"3"	0	"2 Shoreline Estates"	"A0A1G0"	"-53.259922"	"47.599362"	""	""	""	""	""	""	""	"57' x 135' x 35' x 135 Approx|4,051 - 7,250 sqft"	"https://www.realtor.ca//real-estate/22243756/2-shoreline-estates-bay-roberts"
"1219100"	"369900"	"House"	"Freehold"	"2459"	"1"	"3"	"3"	"1"	"34 Julieann Place"	"A1A5Z5"	"-52.692811"	"47.608602"	""	""	""	""	""	""	""	"4846 sq. ft.|4,051 - 7,250 sqft"	"https://www.realtor.ca//real-estate/22242107/34-julieann-place-st-johns"
"1219101"	"219900"	"House"	"Freehold"	"2072"	"1"	"1"	"3"	0	"209 Old Bay Bulls Road"	"A1G1B5"	"-52.766602"	"47.5"	"75 x 116 x 75 x 116"	"Detached Garage"	""	""	""	""	""	"75x116x75x116|under 1/2 acre"	"https://www.realtor.ca//real-estate/22242106/209-old-bay-bulls-road-st-johns"
"27968903"	"239000"	"House"		"111.11 m2"	"1"	"1"	"4"	0	"3083 Route Du Fleuve"	"G0A2M0"	"-70.25682619"	"47.51221657"	""	"Detached Garage"	""	"Garage"	""	"Other"	""	"2396.2 m2"	"https://www.realtor.ca//real-estate/22238927/3083-route-du-fleuve-les-éboulements-les-éboulements"
"1219048"	"344900"	"House"	"Freehold"	"2100"	"1"	"2"	"3"	0	"167 Seal Cove Road"	"A1X5B8"	"-53.078046"	"47.466709"	"81 x 202 x 180 x 81"	"Attached Garage"	""	""	""	""	""	"81x202x180x81|4,051 - 7,250 sqft"	"https://www.realtor.ca//real-estate/22235932/167-seal-cove-road-conception-bay-south"
"1219043"	"369900"	"House"	"Freehold"	"3300"	"1"	"3"	"3"	"1"	"309 Foxtrap Access Road"	"A1X7E8"	"-52.989185"	"47.484721"	"95.77 x 113.86 x 76"	"Attached Garage"	""	""	""	""	""	"95.77X113.86X76|under 1/2 acre"	"https://www.realtor.ca//real-estate/22235935/309-foxtrap-access-road-conception-bay-south"
"1219050"	"219900"	"House"	"Freehold"	"3072"	"1"	"2"	"3"	0	"6 Searles Lane"	"A0A4H0"	"-52.927216"	"47.638735"	"1.5 acres"	"Detached Garage"	""	""	""	""	""	"1.5 ACRES|1 - 3 acres"	"https://www.realtor.ca//real-estate/22235931/6-searles-lane-bell-island"
"1219030"	"349000"	"House"	"Freehold"	"1300"	"1"	"1"	"2"	0	"3 Middle Battery Road"	"A1A1A2"	"-52.696189"	"47.570869"	"42 x 20"	""	""	""	""	""	""	"42x20|4,051 - 7,250 sqft"	"https://www.realtor.ca//real-estate/22234165/3-middle-battery-road-st-johns"
"1219016"	"369900"	"House"	"Freehold"	"1960"	"1"	"2"	"2"	"3"	"6-10 Powers Farm Road"	"A1K3G1"	"-52.688374"	"47.632394"	""	"Garage"	"2"	""	""	""	""	".622 Acres|21,780 - 32,669 sqft (1/2 - 3/4 ac)"	"https://www.realtor.ca//real-estate/22230363/6-10-powers-farm-road-logy-bay-middle-cove-outer-cove"
"1218962"	"319900"	"House"	"Freehold"	"2814"	"1"	"2"	"3"	0	"10 Gillingham Place"	"A1E4X9"	"-52.766323"	"47.533698"	"37 x 168 x 26 x 113 x 117"	""	""	""	""	""	""	"37x168x26x113x117|10,890 - 21,799 sqft (1/4 - 1/2 ac)"	"https://www.realtor.ca//real-estate/22230377/10-gillingham-place-st-johns"
"1218971"	"249000"	"House"	"Freehold"	"2160"	"1"	"1"	"3"	0	"46 Merrymeeting Road"	"A1C2V8"	"-52.718612"	"47.565637"	"45 x 100"	"Detached Garage"	""	""	""	""	""	"45 x 100|0-4,050 sqft"	"https://www.realtor.ca//real-estate/22228711/46-merrymeeting-road-st-johns"
"1218963"	"244900"	"House"	"Freehold"	"1539"	"2"	"1"	"3"	0	"181 Merrymeeting Road"	"A1C2W6"	"-52.723989"	"47.5639"	"24 x 74"	""	""	""	""	""	""	"24 x 74|under 1/2 acre"	"https://www.realtor.ca//real-estate/22227680/181-merrymeeting-road-st-johns"
"1218712"	"239000"	"House"	"Freehold"	"1538"	"2"	"2"	"3"	0	"94 Hamilton Avenue"	"A1E1H9"	"-52.717393"	"47.554842"	""	""	""	""	""	""	""	"Under 0.5 Acres|.5 - 9.99 acres"	"https://www.realtor.ca//real-estate/22227691/94-hamilton-avenue-st-johns"
"1218794"	"292500"	"House"	"Freehold"	"2070"	"1"	"3"	"3"	"1"	"8 Croydon Street"	"A1L1P5"	"-52.869047"	"47.527404"	"100 x 97 x 140"	""	""	""	""	""	""	"100 x 97 x 140|4,051 - 7,250 sqft"	"https://www.realtor.ca//real-estate/22227688/8-croydon-street-paradise"
"1218943"	"319900"	"House"	"Freehold"	"1954"	"1"	"3"	"3"	0	"58 Terra Nova Road"	"A1B1E6"	"-52.739269"	"47.560645"	"60 x 120"	"Garage"	"1"	""	""	""	""	"60 x 120|under 1/2 acre"	"https://www.realtor.ca//real-estate/22225226/58-terra-nova-road-st-johns"
"1218888"	"349000"	"House"	"Freehold"	"2839"	"1.5000"	"3"	"5"	0	"132 Topsail Pond Road"	"A1L2H3"	"-52.906657"	"47.522641"	"2.6 acres"	""	""	""	""	""	""	"2.6 acres|1 - 3 acres"	"https://www.realtor.ca//real-estate/22219343/132-topsail-pond-road-paradise"
"1218863"	"264900"	"House"	"Freehold"	"1640"	"1"	"2"	"2"	"2"	"93 Elizabeth Drive"	"A1L1E5"	"-52.841084"	"47.540473"	"55 x 98 x 39 x 98"	""	""	""	""	""	""	"55x98x39x98|0-4,050 sqft"	"https://www.realtor.ca//real-estate/22217714/93-elizabeth-drive-paradise"
"1218822"	"250000"	"House"	"Freehold"	"1592"	"1"	"1"	"3"	0	"621 Southside Road"	"A1E1A4"	"-52.727871"	"47.539521"	"198 x 24 x 198 x 27"	""	""	""	""	""	""	"198x24x198x27"	"https://www.realtor.ca//real-estate/22217726/621-southside-road-st-johns"
"1218857"	"364000"	"House"	"Freehold"	"3200"	"2"	"3"	"4"	"1"	"10 Paddy Dobbin Drive"	"A1A4V4"	"-52.707569"	"47.61182"	"58 x 100 x 52 x 100"	"Garage"	"1"	"Detached Garage"	""	""	""	"58x100x52x100|4,051 - 7,250 sqft"	"https://www.realtor.ca//real-estate/22217717/10-paddy-dobbin-drive-st-johns"
"1218788"	"259750"	"House"	"Freehold"	"1921"	"1"	"2"	"2"	"2"	"42 Eastmeadows Crescent"	"A1A3M1"	"-52.695474"	"47.60215"	"68 x 85 x 60 x 107"	""	""	""	""	""	""	"68x85x60x107|under 1/2 acre"	"https://www.realtor.ca//real-estate/22217200/42-eastmeadows-crescent-st-johns"
"1218791"	"324900"	"House"	"Freehold"	"2324"	"1"	"2"	"3"	0	"78 Petite Forte Drive"	"A1B0H1"	"-52.795685"	"47.554402"	"50 x 100"	""	""	""	""	""	""	"50x100|4,051 - 7,250 sqft"	"https://www.realtor.ca//real-estate/22214620/78-petite-forte-drive-st-johns"
"1218769"	"349900"	"House"	"Freehold"	"2700"	"2"	"4"	"3"	0	"95 Spruce Hill Road"	"A1W5N4"	"-52.933471"	"47.533433"	"56 x 148 x 78 x 148"	"Attached Garage"	""	""	""	""	""	"56x148x78x148|under 1/2 acre"	"https://www.realtor.ca//real-estate/22214629/95-spruce-hill-road-topsail"
"1218798"	"359900"	"House"	"Freehold"	"2159"	"2"	"3"	"3"	0	"2 Lasalle Drive"	"A1N0B2"	"-52.806463"	"47.530517"	"59 x 121 x 65 x 93"	"Attached Garage"	""	""	""	""	""	"59x121x65x93|4,051 - 7,250 sqft"	"https://www.realtor.ca//real-estate/22214616/2-lasalle-drive-mount-pearl"
"1218781"	"238000"	"House"	"Freehold"	"1495"	"2"	"1"	"3"	0	"3 Mount Royal Avenue"	"A1C5E5"	"-52.726587"	"47.55734"	""	""	""	""	""	""	""	"29X100.3 approx."	"https://www.realtor.ca//real-estate/22213036/3-mount-royal-avenue-st-johns"
"1218750"	"239900"	"House"	"Freehold"	"2340"	"1"	"2"	"3"	"1"	"46 St. Michaels Avenue"	"A1E1R8"	"-52.72756"	"47.551011"	"50 x 100"	"Attached Garage"	""	""	""	""	""	"50 x 100|under 1/2 acre"	"https://www.realtor.ca//real-estate/22205702/46-st-michaels-avenue-st-johns"
"1218743"	"239900"	"House"	"Freehold"	"2600"	"1"	"2"	"3"	0	"4 Derby Place"	"A1A1Y1"	"-52.70421"	"47.58289"	"60 x 114"	""	""	""	""	""	""	"60x114"	"https://www.realtor.ca//real-estate/22205703/4-derby-place-st-johns"
"1218367"	"294900"	"House"	"Freehold"	"2083"	"1"	"2"	"3"	"2"	"33 Frontenac Avenue"	"A1N4V4"	"-52.812353"	"47.529156"	"49 x 98"	""	""	""	""	""	""	"49x98"	"https://www.realtor.ca//real-estate/22205741/33-frontenac-avenue-mount-pearl"
"1218699"	"314900"	"House"	"Freehold"	"2306"	"1"	"2"	"2"	0	"23 Pattison Street"	"A1L2A6"	"-52.89342"	"47.523396"	"50 x 100"	""	""	""	""	""	""	"50X100|under 1/2 acre"	"https://www.realtor.ca//real-estate/22205726/23-pattison-street-paradise"
"1218646"	"239900"	"House"	"Freehold"	"1248"	"1"	"2"	"3"	0	"4 Flo's Lane"	"A0P1C0"	"-53.549003"	"47.468894"	"0.5 acres"	""	""	""	""	""	""	"0.5 acre|21,780 - 32,669 sqft (1/2 - 3/4 ac)"	"https://www.realtor.ca//real-estate/22205733/4-flos-lane-blaketown"
"1209781"	"359900"	"House"	"Freehold"	"2070"	"1"	"2"	"3"	0	"263 Seal Cove Road"	"A1X6S9"	"-53.085877"	"47.465288"	"132 x 519 x 320 x 266 x 82 x 296"	"Attached Garage"	""	"Garage"	"2"	""	""	"132X519X320X266X82X296|1 - 3 acres"	"https://www.realtor.ca//real-estate/22203981/263-seal-cove-road-conception-bay-south"
"1218664"	"369900"	"House"	"Freehold"	"2760"	"2"	"4"	"3"	0	"7 Troy Place"	"A1W3J6"	"-52.951242"	"47.51817"	"60 x 108"	""	""	""	""	""	""	"60 x 108|4,051 - 7,250 sqft"	"https://www.realtor.ca//real-estate/22202833/7-troy-place-conception-bay-south"
"1218687"	"309999"	"House"	"Freehold"	"2088"	"1"	"2"	"3"	0	"7 Duffs Crescent"	"A1L2A4"	"-52.89457"	"47.527991"	"86 x 133"	"Detached Garage"	""	""	""	""	""	"Approx 86 x 133|10,890 - 21,799 sqft (1/4 - 1/2 ac)"	"https://www.realtor.ca//real-estate/22200048/7-duffs-crescent-paradise"
"1218683"	"369900"	"House"	"Freehold"	"2328"	"1"	"2"	"3"	0	"1285 Conception Bay Highway"	"A0A2R0"	"-53.057835"	"47.475226"	"60 x 120"	"Attached Garage"	""	""	""	""	""	"60 x 120|4,051 - 7,250 sqft"	"https://www.realtor.ca//real-estate/22200050/1285-conception-bay-highway-conception-bay-south"
"1218506"	"309900"	"House"	"Freehold"	"2144"	"1"	"2"	"3"	0	"20 Cross Meadow Other"	"A1W4Y4"	"-52.956326"	"47.497281"	"120 x 424 x 115 x 430"	""	""	""	""	""	""	"120 x 424 x 115 x 430|.5 - 9.99 acres"	"https://www.realtor.ca//real-estate/22200078/20-cross-meadow-other-conception-bay-south"
"1214309"	"254900"	"House"	"Freehold"	"1976"	"1"	"2"	"3"	"1"	"1 Ryan Street"	"A1E4M8"	"-52.731319"	"47.543772"	"99 x 52"	""	""	""	""	""	""	"99 x 52|0-4,050 sqft"	"https://www.realtor.ca//real-estate/22200083/1-ryan-street-st-johns"
"1218638"	"374900"	"House"	"Freehold"	"3040"	"1"	"3"	"3"	0	"8 Bar Haven Street"	"A1B5G5"	"-52.794091"	"47.548129"	"50 x 100"	"Attached Garage"	""	""	""	""	""	"50X100|4,051 - 7,250 sqft"	"https://www.realtor.ca//real-estate/22198157/8-bar-haven-street-st-johns"
"1218611"	"214900"	"House"	"Freehold"	"1360"	"1"	"2"	"3"	0	"16 Hillview Avenue"	"A1W4L2"	"-52.938717"	"47.521912"	"55 x 112 x 99 x 56"	""	""	""	""	""	""	"55x112x99x56|0-4,050 sqft"	"https://www.realtor.ca//real-estate/22198164/16-hillview-avenue-conception-bay-south"
"1218623"	"349000"	"House"	"Freehold"	"2215"	"1"	"3"	"3"	"1"	"5 Rosegate Place"	"A1W0C6"	"-52.94424"	"47.532895"	""	""	""	""	""	""	""	"4940 SQFT|under 1/2 acre"	"https://www.realtor.ca//real-estate/22198162/5-rosegate-place-conception-bay-south"
"1218618"	"239900"	"House"	"Freehold"	"2100"	"1"	"3"	"3"	"2"	"259-261 Foxtrap Access Road"	"A1X7E8"	"-52.992557"	"47.488032"	"123 x 120 x 98 x 124"	"Carport"	""	"Detached Garage"	""	"Garage"	"2"	"123x120x98x124|under 1/2 acre"	"https://www.realtor.ca//real-estate/22197187/259-261-foxtrap-access-road-conception-bay-south"
"1195039"	"299900"	"House"	"Freehold"	"1798"	"1"	"4"	"3"	"2"	"3 Beaver Pond Road"	"A0H1P0"	"-55.829109"	"47.477776"	"138.84 x 123.06 x 106.80 x 41.94 x 129.09"	"Detached Garage"	""	""	""	""	""	"138.84 X 123.06 X 106.80 X 41.94 X 129.09|0-4,050 sqft"	"https://www.realtor.ca//real-estate/22194494/3-beaver-pond-road-harbour-breton"
"1218581"	"219900"	"House"	"Freehold"	"2340"	"1"	"2"	"3"	0	"113 Old Pennywell Road"	"A1B1A8"	"-52.750734"	"47.555773"	""	""	""	""	""	""	""	"466 sqm|under 1/2 acre"	"https://www.realtor.ca//real-estate/22194456/113-old-pennywell-road-st-johns"
"1218614"	"307500"	"House"	"Freehold"	"2364"	"1"	"2"	"2"	0	"157 Old Topsail Road"	"A1E2B2"	"-52.731275"	"47.542709"	""	""	""	""	""	""	""	"32.13m x 15.24m|4,051 - 7,250 sqft"	"https://www.realtor.ca//real-estate/22194439/157-old-topsail-road-st-johns"
"1218539"	"299900"	"House"	"Freehold"	"1504"	"1"	"2"	"3"	0	"75 Main Street"	"A0A1W0"	"-53.286726"	"47.542004"	""	"Garage"	"1"	""	""	""	""	"84' X 400'   33,600 SQFT|32,670 - 43,559 sqft (3/4 - 1 ac)"	"https://www.realtor.ca//real-estate/22194470/75-main-street-clarkes-beach"
"1218607"	"309900"	"House"	"Freehold"	"2028"	"1"	"1"	"1"	"1"	"106 Acharya Drive"	"A1L4A4"	"-52.895099"	"47.53733"	"50 x 100"	""	""	""	""	""	""	"50 X 100|0-4,050 sqft"	"https://www.realtor.ca//real-estate/22194443/106-acharya-drive-paradise"
"1218579"	"319900"	"House"	"Freehold"	"2942"	"2"	"3"	"4"	0	"108 Carrick Drive"	"A1A4P2"	"-52.70748"	"47.608207"	"52 x 100"	""	""	""	""	""	""	"52x100|under 1/2 acre"	"https://www.realtor.ca//real-estate/22192543/108-carrick-drive-st-johns"
"1218565"	"229900"	"House"	"Freehold"	"1920"	"1"	"1"	"2"	0	"113-115 Shearstown Road"	"A0A3V0"	"-53.292641"	"47.589355"	""	"Detached Garage"	""	"Garage"	"2"	""	""	"93 X 160 (0.34 ACRES)|under 1/2 acre"	"https://www.realtor.ca//real-estate/22192544/113-115-shearstown-road-bay-roberts"
"1218549"	"209000"	"House"	"Freehold"	"3488"	"1"	"2"	"3"	0	"6 Delaney Crescent"	"A0A3X0"	"-53.275722"	"47.637729"	""	"Attached Garage"	""	""	""	""	""	"APP. 223' BY 150'|32,670 - 43,559 sqft (3/4 - 1 ac)"	"https://www.realtor.ca//real-estate/22192553/6-delaney-crescent-spaniards-bay"
"1218336"	"325000"	"House"	"Freehold"	"1910"	"1"	"3"	"2"	"1"	"26 Tupper Street"	"A1A2T8"	"-52.709045"	"47.597424"	"50 x 113"	""	""	""	""	""	""	"50 x 113|4,051 - 7,250 sqft"	"https://www.realtor.ca//real-estate/22192567/26-tupper-street-st-johns"
"1218542"	"339900"	"House"	"Freehold"	"2410"	"1"	"3"	"3"	"1"	"27 Bayview Heights"	"A1X7R7"	"-53.0185"	"47.486738"	""	"Attached Garage"	""	""	""	""	""	"125x175x135"	"https://www.realtor.ca//real-estate/22192556/27-bayview-heights-cbs"
"1218545"	"269900"	"House"	"Freehold"	"2260"	"1"	"2"	"3"	"2"	"15 Smallwood Drive"	"A1N1A7"	"-52.789754"	"47.517832"	"48 x 134 x 67 x 125"	"Garage"	"1"	""	""	""	""	"48X134X67X125|4,051 - 7,250 sqft"	"https://www.realtor.ca//real-estate/22192554/15-smallwood-drive-mount-pearl"
"1218536"	"325000"	"House"	"Freehold"	"2260"	"1"	"3"	"3"	"1"	"32 Malka Drive"	"A1A4X8"	"-52.756385"	"47.607668"	"50 x 100"	""	""	""	""	""	""	"50x100|under 1/2 acre"	"https://www.realtor.ca//real-estate/22191562/32-malka-drive-st-johns"
"1218528"	"322000"	"House"	"Freehold"	"2400"	"1"	"3"	"2"	"2"	"161 Western Gully Road"	"A1M2Y2"	"-52.849219"	"47.615292"	"100 x 200"	""	""	""	""	""	""	"100 x 200|10,890 - 21,799 sqft (1/4 - 1/2 ac)"	"https://www.realtor.ca//real-estate/22191564/161-western-gully-road-portugal-cove"
"1218486"	"339900"	"House"	"Freehold"	"3030"	"1"	"3"	"2"	"1"	"216 Neck Road"	"A0A1X0"	"-53.255115"	"47.587482"	"130 x 175"	"Attached Garage"	""	""	""	""	""	"130 x 175|21,780 - 32,669 sqft (1/2 - 3/4 ac)"	"https://www.realtor.ca//real-estate/22187340/216-neck-road-coleys-point"
"1218474"	"259900"	"House"	"Freehold"	"2955"	"1"	"2"	"3"	0	"36 Newman Street"	"A1E4V9"	"-52.768137"	"47.536063"	"50 x 100"	""	""	""	""	""	""	"50' x 100'|4,051 - 7,250 sqft"	"https://www.realtor.ca//real-estate/22187341/36-newman-street-st-johns"
"1218526"	"229500"	"House"	"Freehold"	"2115"	"1"	"2"	"3"	0	"90-94 Goulds Road"	"A0A2B0"	"-53.261139"	"47.522716"	""	""	""	""	""	""	""	"123.5 X 353 (1 ACRE)|1 - 3 acres"	"https://www.realtor.ca//real-estate/22187314/90-94-goulds-road-cupids"
"1218499"	"310000"	"House"	"Freehold"	"1891"	"1"	"2"	"2"	"2"	"41 Dunluce Crescent"	"A1N5H9"	"-52.80295"	"47.527578"	"41.59 x 110.11 x 73.92 x 98.49"	""	""	""	""	""	""	"41.59X110.11X73.92X98.49|under 1/2 acre"	"https://www.realtor.ca//real-estate/22187333/41-dunluce-crescent-mount-pearl"
"1218519"	"277500"	"House"	"Freehold"	"2160"	"1"	"3"	"3"	"1"	"39 Barnacle Road"	"A1M2B2"	"-52.997609"	"47.508712"	"50 x 132 x 67 x 150"	"Detached Garage"	""	""	""	""	""	"50x132x67x150|under 1/2 acre"	"https://www.realtor.ca//real-estate/22187319/39-barnacle-road-conception-bay-south"
"26967855"	"214500"	"House"		""	"1"	"2"	"3"	0	"273 Rue Varin"	"G0L3Y0"	"-69.815767"	"47.528733"	""	"Other"	""	"Garage"	""	""	""	"13017.88 sqft"	"https://www.realtor.ca//real-estate/22184842/273-rue-varin-saint-pascal"
"1218438"	"308500"	"House"	"Freehold"	"2076"	"2"	"4"	"3"	0	"75 Lasalle Drive"	"A1N0B1"	"-52.811673"	"47.532757"	"49 x 98 x 56 x 58"	""	""	""	""	""	""	"49x98x56x58|4,051 - 7,250 sqft"	"https://www.realtor.ca//real-estate/22184438/75-lasalle-drive-mount-pearl"
"1218465"	"285000"	"House"		"3528"	"1"	"2"	"3"	0	"189 North River Road"	"A0A3C0"	"-53.319791"	"47.538025"	""	""	""	""	""	""	""	".67 Acre|.5 - 9.99 acres"	"https://www.realtor.ca//real-estate/22184418/189-north-river-road-north-river"
"1218458"	"269900"	"House"	"Freehold"	"1628"	"2"	"3"	"3"	0	"28 Browne Crescent"	"A1E4N4"	"-52.746481"	"47.5422"	"41 x 141 x 41 x 145"	"Detached Garage"	""	"Garage"	"1"	""	""	"41 x 141 x 41 x 145|4,051 - 7,250 sqft"	"https://www.realtor.ca//real-estate/22184422/28-browne-crescent-st-johns"
"1209347"	"219900"	"House"	"Freehold"	"2400"	"2"	"3"	"3"	0	"13-15 Peppers Road"	"A0A1G0"	"-53.27101"	"47.594084"	"115 x 300"	"Attached Garage"	""	"Garage"	"2"	""	""	"115 X 300|.5 - 9.99 acres"	"https://www.realtor.ca//real-estate/22184467/13-15-peppers-road-bay-roberts"
"1218339"	"260000"	"House"	"Freehold"	"3187"	"2"	"3"	"4"	0	"289 Pennywell Road"	"A1C2M5"	"-52.731453"	"47.558456"	"40 x 77"	""	""	""	""	""	""	"40' x 77'|0-4,050 sqft"	"https://www.realtor.ca//real-estate/22175432/289-pennywell-road-st-johns"
"1218394"	"209900"	"House"	"Freehold"	"1452"	"2"	"1"	"3"	0	"77-79 Leslie Street"	"A1E2N1"	"-52.725431"	"47.550206"	"55 x 46"	""	""	""	""	""	""	"55 x 46|under 1/2 acre"	"https://www.realtor.ca//real-estate/22173742/77-79-leslie-street-st-johns"
"1213305"	"319900"	"House"	"Freehold"	"2736"	"1"	"3"	"3"	0	"28 Hodgewater Line"	"A0A3W0"	"-53.269968"	"47.523477"	"101 x 225"	"Attached Garage"	""	"Detached Garage"	""	""	""	"101 x 225 approx|.5 - 9.99 acres"	"https://www.realtor.ca//real-estate/22173754/28-hodgewater-line-south-river"
"1218310"	"279900"	"House"	"Freehold"	"2006"	"1"	"2"	"3"	"1"	"62 Old Bay Bulls Road"	"A1G1C6"	"-52.763449"	"47.511012"	"98.12 x 76.77 x 174"	""	""	""	""	""	""	"98.12x76.77x174|under 1/2 acre"	"https://www.realtor.ca//real-estate/22173750/62-old-bay-bulls-road-st-johns"
"1218347"	"365000"	"House"	"Freehold"	"2540"	"2"	"3"	"3"	0	"78 Woodland Drive"	"A1M0C1"	"-52.8082"	"47.638332"	"0.61 acres"	"Attached Garage"	""	"Garage"	"2"	""	""	"0.61 Acres|21,780 - 32,669 sqft (1/2 - 3/4 ac)"	"https://www.realtor.ca//real-estate/22172904/78-woodland-drive-portugal-cove-st-philips"
"1218363"	"279900"	"House"	"Freehold"	"2840"	"2"	"4"	"3"	0	"34 Chipmans Road"	"A0A3X0"	"-53.289437"	"47.624414"	""	"Attached Garage"	""	"Detached Garage"	""	""	""	"91x311x101x292 (0.67 acres)"	"https://www.realtor.ca//real-estate/22168824/34-chipmans-road-spaniards-bay"
"1218358"	"369500"	"House"	"Freehold"	"3064"	"1"	"3"	"3"	0	"20 Marina Place"	"A0A1G0"	"-53.275739"	"47.589046"	"75 x 168 x 108 x 152"	"Garage"	"1"	"Attached Garage"	""	""	""	"75 x 168 x 108 x 152|10,890 - 21,799 sqft (1/4 - 1/2 ac)"	"https://www.realtor.ca//real-estate/22168828/20-marina-place-bay-roberts"
"1218359"	"264900"	"House"	"Freehold"	"2160"	"1"	"2"	"4"	0	"23 Diana Road"	"A1B1H7"	"-52.748534"	"47.558368"	"50 x 100"	""	""	""	""	""	""	"50X100|4,051 - 7,250 sqft"	"https://www.realtor.ca//real-estate/22168827/23-diana-road-st-johns"
"1218345"	"289900"	"House"	"Freehold"	"2550"	"1"	"3"	"4"	0	"4 Holyrood Place"	"A1E3T1"	"-52.769564"	"47.526611"	"55 x 109 x 93 x 116"	""	""	""	""	""	""	"55' x 109' x 93' x 116'|7,251 - 10,889 sqft"	"https://www.realtor.ca//real-estate/22168834/4-holyrood-place-st-johns"
"1218333"	"329900"	"House"	"Freehold"	"2460"	"2"	"3"	"3"	0	"65 Lasalle Drive"	"A1N0B1"	"-52.811288"	"47.532681"	"40 x 100"	""	""	""	""	""	""	"40x100|under 1/2 acre"	"https://www.realtor.ca//real-estate/22164566/65-lasalle-drive-mount-pearl"
"1218327"	"279900"	"House"	"Freehold"	"2000"	"1"	"2"	"2"	0	"16 Samuel Drive"	"A1X0H4"	"-53.043059"	"47.479498"	""	""	""	""	""	""	""	"approx  50 x 109|4,051 - 7,250 sqft"	"https://www.realtor.ca//real-estate/22164570/16-samuel-drive-conception-bay-south"
"1218125"	"329900"	"House"	"Freehold"	"4600"	"1"	"4"	"5"	0	"15 Chesley Van Heights"	"A1M3S5"	"-52.813821"	"47.639107"	""	"Other"	""	""	""	""	""	"Approx 1/2 acre"	"https://www.realtor.ca//real-estate/22163031/15-chesley-van-heights-portugal-cove"
"1218290"	"319900"	"House"	"Freehold"	"2208"	"1"	"2"	"3"	0	"6 Dufferin Place"	"A1A2V1"	"-52.706441"	"47.593639"	"41 x 121 x 48 x 74 x 121"	""	""	""	""	""	""	"41x121x48x74x121|0-4,050 sqft"	"https://www.realtor.ca//real-estate/22162233/6-dufferin-place-st-johns"
"1218179"	"269900"	"House"	"Freehold"	"2244"	"1"	"2"	"3"	"1"	"51 Greens Road"	"A0A1G0"	"-53.264917"	"47.597988"	"90 x 210"	""	""	""	""	""	""	"90' x 210' approx.|.5 - 9.99 acres"	"https://www.realtor.ca//real-estate/22159970/51-greens-road-bay-roberts"
"1199575"	"299900"	"House"	"Freehold"	"3952"	"1"	"2"	"3"	0	"101 Cross Road"	"A0A1G0"	"-53.27577"	"47.596212"	"100 x 200"	"Detached Garage"	""	"Garage"	"2"	""	""	"100 X 200 approx|.5 - 9.99 acres"	"https://www.realtor.ca//real-estate/22159977/101-cross-road-bay-roberts"
"1218267"	"215000"	"House"	"Freehold"	"1207"	"1"	"2"	"1"	"2"	"26 Liverpool Avenue"	"A1C3B3"	"-52.72805"	"47.564664"	"50 x 50"	""	""	""	""	""	""	"50 x 50|under 1/2 acre"	"https://www.realtor.ca//real-estate/22159965/26-liverpool-avenue-st-johns"
"1217808"	"309900"	"House"	"Freehold"	"3099"	"1"	"2"	"2"	0	"47 Oaken Drive"	"A1X0B9"	"-53.028007"	"47.485052"	"50 x 110"	""	""	""	""	""	""	"approx 50 x 110|4,051 - 7,250 sqft"	"https://www.realtor.ca//real-estate/22159973/47-oaken-drive-conception-bay-south"
"1218261"	"329900"	"House"	"Freehold"	"2525"	"2"	"3"	"4"	0	"15 Jennmar Crescent"	"A1H0E2"	"-52.805975"	"47.4929"	"40 x 95.4"	""	""	""	""	""	""	"40 x 95.4|under 1/2 acre"	"https://www.realtor.ca//real-estate/22158441/15-jennmar-crescent-st-johns"
"1218185"	"249900"	"House"	"Freehold"	"1726"	"1"	"1"	"3"	0	"12 Jill Drive"	"A1X7H2"	"-52.992558"	"47.505372"	""	""	""	""	""	""	""	"approx 13,685 sq ft."	"https://www.realtor.ca//real-estate/22158475/12-jill-drive-conception-bay-south"
"1218253"	"329995"	"House"	"Freehold"	"2545"	"2"	"4"	"4"	0	"15 Starrigan Place"	"A1W4R7"	"-52.928668"	"47.51361"	"37 x 115 x 78 x 101"	""	""	""	""	""	""	"37X115X78X101|4,051 - 7,250 sqft"	"https://www.realtor.ca//real-estate/22158447/15-starrigan-place-conception-bay-south"
"1218245"	"329900"	"House"	"Freehold"	"3192"	"1"	"2"	"3"	0	"3 Simon Place"	"A0A3X0"	"-53.26912"	"47.638187"	"100 x 150"	"Attached Garage"	""	""	""	""	""	"100' x 150'|10,890 - 21,799 sqft (1/4 - 1/2 ac)"	"https://www.realtor.ca//real-estate/22158453/3-simon-place-spaniards-bay"
"1218241"	"279000"	"House"	"Freehold"	"1094"	"1.5000"	"2"	"3"	0	"33 Jack Pine Place"	"A0A3X0"	"-53.302335"	"47.636667"	"70 x 150"	"Attached Garage"	""	"Garage"	"2"	""	""	"70 x 150|under 1/2 acre"	"https://www.realtor.ca//real-estate/22158456/33-jack-pine-place-spaniards-bay"
"1218239"	"375000"	"House"	"Freehold"	"1210"	"1"	"2"	"3"	0	"42 Jack Pine Place"	"A0A3X0"	"-53.303256"	"47.636892"	""	"Attached Garage"	""	"Garage"	"2"	""	""	"1/2 Acre|under 1/2 acre"	"https://www.realtor.ca//real-estate/22158458/42-jack-pine-place-spaniards-bay"
"1218238"	"249000"	"House"	"Freehold"	"1065"	"1"	"2"	"2"	0	"29 Jack Pine Place"	"A0A3X0"	"-53.302012"	"47.636774"	"70 x 150"	""	""	""	""	""	""	"70 x 150|under 1/2 acre"	"https://www.realtor.ca//real-estate/22158459/29-jack-pine-place-spaniards-bay"
"1218236"	"249000"	"House"	"Freehold"	"1161"	"1"	"2"	"3"	0	"21 Jack Pine Place"	"A0A3X0"	"-53.302417"	"47.636685"	"70 x 150"	""	""	""	""	""	""	"70 x 150|under 1/2 acre"	"https://www.realtor.ca//real-estate/22158461/21-jack-pine-place-spaniards-bay"
"1218194"	"244500"	"House"	"Freehold"	"1920"	"1"	"2"	"3"	0	"86 Neck Road"	"A0A1G0"	"-53.269155"	"47.580334"	""	""	""	""	""	""	""	"45 x 310 x 41 x 312 Approx"	"https://www.realtor.ca//real-estate/22158473/86-neck-road-bay-roberts"
"1218198"	"256500"	"House"	"Freehold"	"1976"	"1"	"2"	"3"	"2"	"43 Mccourt Close"	"A1X6J2"	"-53.025231"	"47.484608"	"50 x 100"	""	""	""	""	""	""	"50x100|under 1/2 acre"	"https://www.realtor.ca//real-estate/22154001/43-mccourt-close-conception-bay-south"
"1218176"	"284900"	"House"	"Freehold"	"1720"	"1"	"2"	"3"	0	"11 Stonehaven Place"	"A1L1E9"	"-52.835631"	"47.536147"	"53 x 100"	"Attached Garage"	""	""	""	""	""	"53x100|4,051 - 7,250 sqft"	"https://www.realtor.ca//real-estate/22152599/11-stonehaven-place-paradise"
"1218155"	"269900"	"House"	"Freehold"	"2316"	"1"	"2"	"5"	0	"21 Birchwynd Street"	"A1A2N3"	"-52.711908"	"47.604289"	"50 x 115"	""	""	""	""	""	""	"50 x 115"	"https://www.realtor.ca//real-estate/22146384/21-birchwynd-street-st-johns"
"1217972"	"359900"	"House"	"Freehold"	"2840"	"1"	"2"	"3"	0	"136 Main Road"	"A0A3H0"	"-52.707205"	"47.465275"	""	"Detached Garage"	""	""	""	""	""	"11,657 Sq.Ft.|under 1/2 acre"	"https://www.realtor.ca//real-estate/22146391/136-main-road-maddox-cove"
"1217948"	"250000"	"House"	"Freehold"	"2105"	"1"	"2"	"4"	0	"183 Bay Bulls Road"	"A1G1B4"	"-52.757969"	"47.508692"	"60 x 250"	""	""	""	""	""	""	"60 x 250"	"https://www.realtor.ca//real-estate/22146392/183-bay-bulls-road-st-johns"
"1218133"	"239900"	"House"	"Freehold"	"2336"	"1"	"3"	"3"	0	"230 Freshwater Road"	"A1B1B2"	"-52.73317"	"47.563262"	""	""	""	""	""	""	""	"60x150 (aproximately)|under 1/2 acre"	"https://www.realtor.ca//real-estate/22144775/230-freshwater-road-stjohns"
"18645607"	"274900"	"House"		""	"2"	"2"	"3"	0	"1009 Route 230 E."	"G0L3Y0"	"-69.77764149"	"47.54613697"	""	"Garage"	""	"Other"	""	""	""	"1666.1 m2"	"https://www.realtor.ca//real-estate/22144384/1009-route-230-e-saint-pascal"
"1218113"	"245000"	"House"	"Freehold"	"2400"	"1"	"1"	"3"	0	"24 Cornwall Avenue"	"A1E1Y5"	"-52.733155"	"47.545949"	""	""	""	""	""	""	""	"65x100 (approx)|under 1/2 acre"	"https://www.realtor.ca//real-estate/22143767/24-cornwall-avenue-st-johns"
"1218111"	"299900"	"House"	"Freehold"	"2079"	"2"	"2"	"3"	0	"194-196 Cb Highway"	"A0A3X0"	"-53.283236"	"47.609826"	""	"Detached Garage"	""	""	""	""	""	"APP. 121.5 BY 450' BY 85.5 BY 450|1 - 3 acres"	"https://www.realtor.ca//real-estate/22143768/194-196-cb-highway-spaniards-bay"
"1217802"	"359900"	"House"	"Freehold"	"2970"	"2"	"3"	"2"	"1"	"19 1/2 Whiteway Street"	"a1b1j9"	"-52.725331"	"47.57067"	"50 x 105"	""	""	""	""	""	""	"50X105|4,051 - 7,250 sqft"	"https://www.realtor.ca//real-estate/22143799/19-12-whiteway-street-stjohns"
"1218070"	"349999"	"House"	"Freehold"	"2880"	"2"	"3"	"4"	0	"20 Fagan Drive"	"A1A3N3"	"-52.696098"	"47.604496"	"70 x 94 x 69 x 104"	"Attached Garage"	""	""	""	""	""	"70x94x69x104|under 1/2 acre"	"https://www.realtor.ca//real-estate/22141373/20-fagan-drive-st-johns"
"1218094"	"250000"	"House"	"Freehold"	"1610"	"1"	"1"	"2"	0	"24 Maple Oak Path"	"A1X0j6"	"-53.011628"	"47.501154"	"50 x 100"	""	""	""	""	""	""	"50 x 100|under 1/2 acre"	"https://www.realtor.ca//real-estate/22141365/24-maple-oak-path-cbs"
"1218064"	"329900"	"House"	"Freehold"	"1996"	"1"	"3"	"3"	0	"10 Zircon Place"	"A1W3K7"	"-52.951004"	"47.516291"	"55 x 115 x 60 x 115"	"Attached Garage"	""	"Garage"	"1"	""	""	"55X115X60X115|under 1/2 acre"	"https://www.realtor.ca//real-estate/22141375/10-zircon-place-conception-bay-south"
"1218088"	"279900"	"House"	"Freehold"	"1780"	"1"	"2"	"2"	0	"6 Commander Place"	"A1N5J9"	"-52.784569"	"47.51853"	"50 x 100"	""	""	""	""	""	""	"50 x 100|under 1/2 acre"	"https://www.realtor.ca//real-estate/22141370/6-commander-place-mount-pearl"
"1218071"	"349900"	"House"	"Freehold"	"2620"	"1"	"2"	"3"	0	"25 Exeter Avenue"	"A1B1R1"	"-52.721214"	"47.576331"	"47.5 x 130 x 60 x 128"	""	""	""	""	""	""	"47.5x130x60x128|under 1/2 acre"	"https://www.realtor.ca//real-estate/22139730/25-exeter-avenue-st-johns"
"1218056"	"294900"	"House"	"Freehold"	"2400"	"2"	"4"	"3"	"1"	"18 Battens Road"	"A0A3X0"	"-53.269943"	"47.634202"	""	"Detached Garage"	""	""	""	""	""	"87 x 97 x 101 x 128 (0.24 Acres)|under 1/2 acre"	"https://www.realtor.ca//real-estate/22139736/18-battens-road-spaniards-bay"
"1217526"	"267500"	"House"	"Freehold"	"2510"	"1"	"2"	"3"	0	"1 Caroline Place"	"A0A3X0"	"-53.289656"	"47.602981"	"47 x 118 x 119 x 171"	""	""	""	""	""	""	"47x118x119x171|10,890 - 21,799 sqft (1/4 - 1/2 ac)"	"https://www.realtor.ca//real-estate/22139751/1-caroline-place-spaniards-bay"
"1218051"	"329900"	"House"	"Freehold"	"2150"	"1"	"2"	"3"	"1"	"45 Notre Dame Drive"	"A1E5W5"	"-52.746635"	"47.549394"	""	"Detached Garage"	""	""	""	""	""	"920.7 sqm|7,251 - 10,889 sqft"	"https://www.realtor.ca//real-estate/22139738/45-notre-dame-drive-st-johns"
"21848885"	"289000"	"House"		""	"1"	"1"	"2"	0	"1400 Lac De L'algonquin"	"G0X3N0"	"-72.47011249"	"47.53239129"	""	"Other"	""	""	""	""	""	"4000 m2"	"https://www.realtor.ca//real-estate/22139033/1400-lac-de-lalgonquin-la-tuque-la-tuque"
"1218026"	"249000"	"House"	"Freehold"	"1808"	"1"	"2"	"3"	0	"7 Ashgrove Drive"	"A1L1G1"	"-52.83938"	"47.535861"	"101 x 43"	""	""	""	""	""	""	"101 x 43|under 1/2 acre"	"https://www.realtor.ca//real-estate/22136334/7-ashgrove-drive-paradise"
"1217754"	"359900"	"House"	"Freehold"	"2589"	"2"	"3"	"4"	0	"43 Harrington Drive"	"A1E5Y1"	"-52.764266"	"47.539178"	"50 x 101"	""	""	""	""	""	""	"50x101|under 1/2 acre"	"https://www.realtor.ca//real-estate/22134743/43-harrington-drive-st-johns"
"1217999"	"229900"	"House"	"Freehold"	"2400"	"1"	"1"	"3"	"2"	"90 Peachytown Road"	"A1X7C2"	"-52.990555"	"47.50051"	""	""	""	""	""	""	""	"81 X 162 X 65 X 162 ( Approx. )|under 1/2 acre"	"https://www.realtor.ca//real-estate/22134720/90-peachytown-road-conception-bay-south"
"27070342"	"221000"	"House"		"62.66 m2"	"1"	"1"	"1"	0	"75 Rg St-joseph"	"G5A2A9"	"-70.22636236"	"47.63657435"	""	"Other"	""	""	""	""	""	"30545.8 m2"	"https://www.realtor.ca//real-estate/22133157/75-rg-st-joseph-la-malbaie"
"1217980"	"269000"	"House"	"Freehold"	"1506"	"2"	"1"	"2"	0	"5 Holland Place"	"A1L0A9"	"-52.888418"	"47.543505"	"50 x 100"	""	""	""	""	""	""	"50x100|under 1/2 acre"	"https://www.realtor.ca//real-estate/22131367/5-holland-place-paradise"
"1217779"	"320000"	"House"	"Freehold"	"2039"	"1"	"3"	"3"	"1"	"25 Maureen Crescent"	"A1X4B3"	"-53.048925"	"47.477433"	"100 x 106 x 100"	"Attached Garage"	""	"Garage"	"2"	""	""	"100x106x100|10,890 - 21,799 sqft (1/4 - 1/2 ac)"	"https://www.realtor.ca//real-estate/22131385/25-maureen-crescent-conception-bay-south"
"1217907"	"269900"	"House"	"Freehold"	"2450"	"1"	"3"	"3"	0	"35 Fogarty Avenue"	"A1X6j3"	"-53.023454"	"47.484294"	""	"Attached Garage"	""	"Garage"	"2"	""	""	"tbd|under 1/2 acre"	"https://www.realtor.ca//real-estate/22131384/35-fogarty-avenue-conception-bay-south"
"1217936"	"315000"	"House"	"Freehold"	"2592"	"1"	"2"	"2"	0	"18 Dennis Road"	"A1X0L3"	"-52.975798"	"47.490183"	"65 x 135"	"Attached Garage"	""	""	""	""	""	"65x135|under 1/2 acre"	"https://www.realtor.ca//real-estate/22129692/18-dennis-road-conception-bay-south"
"1217934"	"300000"	"House"	"Freehold"	"1966"	"1"	"2"	"2"	"2"	"52 Goldrock Run"	"A1W3K5"	"-52.949529"	"47.516099"	"60 x 111 x 39 x 111"	""	""	""	""	""	""	"60x111x39x111|under 1/2 acre"	"https://www.realtor.ca//real-estate/22129693/52-goldrock-run-conception-bay-south"
"1217950"	"249000"	"House"	"Freehold"	"3332"	"1"	"2"	"4"	0	"5 Riverview Avenue"	"A0B2T0"	"-53.666466"	"47.557729"	"0.689 acres"	"Attached Garage"	""	""	""	""	""	"0.689 Acres|.5 - 9.99 acres"	"https://www.realtor.ca//real-estate/22129682/5-riverview-avenue-normans-cove"
"1217880"	"319900"	"House"	"Freehold"	"2436"	"1"	"3"	"5"	0	"22 School Road"	"A1M1J9"	"-52.878462"	"47.586988"	"62 x 160"	""	""	""	""	""	""	"62X160|under 1/2 acre"	"https://www.realtor.ca//real-estate/22128960/22-school-road-portugal-cove-st-philips"
"1217884"	"279900"	"House"	"Freehold"	"2190"	"1"	"2"	"3"	0	"2 Rockland Heights"	"A1W4P1"	"-52.937026"	"47.517996"	"53 x 103 x 85 x 101"	"Other"	""	""	""	""	""	"53x103x85x101|4,051 - 7,250 sqft"	"https://www.realtor.ca//real-estate/22126301/2-rockland-heights-conception-bay-south"
"1217863"	"339000"	"House"	"Freehold"	"2150"	"1"	"2"	"3"	0	"252 Fowlers Road"	"A1W4J8"	"-52.928391"	"47.517178"	""	"Detached Garage"	""	""	""	""	""	"1008 Sq Meters|under 1/2 acre"	"https://www.realtor.ca//real-estate/22123794/252-fowlers-road-conception-bay-south"
"1217824"	"269900"	"House"	"Freehold"	"1514"	"1"	"3"	"3"	"1"	"23 Dannic Place"	"A1X7X5"	"-52.989277"	"47.483383"	"50 x 100"	""	""	""	""	""	""	"50X100|0-4,050 sqft"	"https://www.realtor.ca//real-estate/22123843/23-dannic-place-conception-bay-south"
"1217876"	"299900"	"House"	"Freehold"	"806"	"1"	"3"	"2"	0	"32 Lance Cove Road"	"A1X6R6"	"-53.065633"	"47.471858"	"55 x 271 x 79 x 239"	"Attached Garage"	""	"Garage"	"1"	""	""	"55 x 271 x 79 x 239|under 1/2 acre"	"https://www.realtor.ca//real-estate/22123775/32-lance-cove-road-cbs"
"1217854"	"259900"	"House"	"Freehold"	"1790"	"1"	"2"	"2"	0	"54 Comerfords Road"	"A1X4B3"	"-53.048104"	"47.479041"	"56 x 120"	""	""	""	""	""	""	"56 X 120|under 1/2 acre"	"https://www.realtor.ca//real-estate/22123807/54-comerfords-road-conception-bay-south"
"1217818"	"289900"	"House"	"Freehold"	"2048"	"1"	"2"	"2"	0	"19 Samuel Drive"	"A1X0J1"	"-53.04293"	"47.479145"	"50 x 105"	""	""	""	""	""	""	"APPROX 50 X 105|4,051 - 7,250 sqft"	"https://www.realtor.ca//real-estate/22123848/19-samuel-drive-conception-bay-south"
"1217848"	"210000"	"House"	"Freehold"	"955"	"1"	"1"	"2"	0	"922 Conception Bay Highway"	"A1X7T5"	"-53.026033"	"47.494243"	""	"Detached Garage"	""	""	""	""	""	"13530 Sq Feet|10,890 - 21,799 sqft (1/4 - 1/2 ac)"	"https://www.realtor.ca//real-estate/22123815/922-conception-bay-highway-conception-bay-south"
"1217839"	"319900"	"House"	"Freehold"	"3200"	"1"	"3"	"2"	"1"	"10 O'mara Place"	"A1A5B7"	"-52.719278"	"47.608222"	"50 x 100"	""	""	""	""	""	""	"50 X 100|4,051 - 7,250 sqft"	"https://www.realtor.ca//real-estate/22123828/10-omara-place-st-johns"
"1217151"	"269900"	"House"	"Freehold"	"5508"	"1"	"2"	"3"	0	"5 Sheppards Lane"	"A0A3X0"	"-53.280244"	"47.613355"	""	""	""	""	""	""	""	"100 x 100' +/-|under 1/2 acre"	"https://www.realtor.ca//real-estate/22123909/5-sheppards-lane-spaniards-bay"
"1217860"	"279500"	"House"	"Freehold"	"2828"	"2"	"2"	"4"	0	"7 Cornwall Heights"	"A1E3G6"	"-52.733934"	"47.546118"	"50 x 125"	""	""	""	""	""	""	"50x125|.5 - 9.99 acres"	"https://www.realtor.ca//real-estate/22123799/7-cornwall-heights-st-johns"
"1217721"	"357500"	"House"	"Freehold"	"2612"	"1"	"3"	"3"	"1"	"26 Keystone Avenue"	"A1L0K6"	"-52.892016"	"47.538867"	"55 x 112"	"Attached Garage"	""	""	""	""	""	"55 x 112"	"https://www.realtor.ca//real-estate/22123868/26-keystone-avenue-paradise"
"17374201"	"245000"	"House"		"117.8 m2"	"1.5000"	"2"	"3"	0	"52 Ch. Du Quai S."	"G4T8B4"	"-61.70865927"	"47.52330346"	""	""	""	""	""	""	""	"4332.4 m2"	"https://www.realtor.ca//real-estate/22121596/52-ch-du-quai-s-les-îles-de-la-madeleine-havre-aux-maisons"
"1217590"	"324900"	"House"	"Freehold"	"2186"	"1"	"3"	"3"	"1"	"19 Corte Real Place"	"A1N0C4"	"-52.808242"	"47.526326"	"40 x 165"	"Attached Garage"	""	""	""	""	""	"40 x 165"	"https://www.realtor.ca//real-estate/22118648/19-corte-real-place-mount-pearl"
"1217753"	"369900"	"House"	"Freehold"	"2328"	"1"	"2"	"3"	0	"25 Townsview Place"	"A1W0G5"	"-52.954005"	"47.51378"	"75 x 134 x 76 x 110"	"Attached Garage"	""	""	""	""	""	"75x134x76x110|7,251 - 10,889 sqft"	"https://www.realtor.ca//real-estate/22118642/25-townsview-place-conception-bay-south"
"1217799"	"274000"	"House"	"Freehold"	"2032"	"1"	"2"	"3"	"1"	"9 Hillhurst Street Street"	"A1N4N7"	"-52.800497"	"47.534319"	"35 x 100"	""	""	""	""	""	""	"35 x 100|0-4,050 sqft"	"https://www.realtor.ca//real-estate/22118627/9-hillhurst-street-street-mount-pearl"
"1217640"	"339900"	"House"	"Freehold"	"2811"	"1"	"4"	"3"	"1"	"16 Cloudberry Drive"	"A1L3H1"	"-52.850642"	"47.529876"	"50 x 100"	"Attached Garage"	""	""	""	""	""	"50x100|4,051 - 7,250 sqft"	"https://www.realtor.ca//real-estate/22118647/16-cloudberry-drive-paradise"
"1217428"	"284900"	"House"	"Freehold"	"2517"	"1"	"2"	"3"	0	"1-7 Conception Bay Highway"	"A0A1W0"	"-53.272386"	"47.539843"	""	"Detached Garage"	""	""	""	""	""	"1 Acre +|1 - 3 acres"	"https://www.realtor.ca//real-estate/22118658/1-7-conception-bay-highway-clarkes-beach"
"1217814"	"269900"	"House"	"Freehold"	"862"	"1"	"1"	"2"	0	"9 Adventure Avenue"	"A1B0K7"	"-52.784761"	"47.551023"	"54.85 x 113.07 x 54.95 x 110.99"	""	""	""	""	""	""	"54.85 X 113.07 X 54.95 X 110.99|4,051 - 7,250 sqft"	"https://www.realtor.ca//real-estate/22118620/9-adventure-avenue-st-johns"
"1217549"	"349900"	"House"	"Freehold"	"2690"	"2"	"4"	"4"	"1"	"90 George Mercer Drive"	"A0A1G0"	"-53.268321"	"47.585521"	"93 x 175 x 102 x 185"	"Attached Garage"	""	"Detached Garage"	""	""	""	"93 x 175 x 102 x 185"	"https://www.realtor.ca//real-estate/22118651/90-george-mercer-drive-bay-roberts"
"1217724"	"324999"	"House"	"Freehold"	"3105"	"2"	"4"	"4"	0	"1 Guzzwell Drive"	"A1A3W9"	"-52.702421"	"47.600594"	"50 x 100"	""	""	""	""	""	""	"50X100|under 1/2 acre"	"https://www.realtor.ca//real-estate/22116909/1-guzzwell-drive-st-johns"
"1217744"	"309900"	"House"	"Freehold"	"1652"	"2"	"2"	"2"	0	"47 Hickory Place Unit#lot 11"	"A1W0H1"	"-52.957463"	"47.513787"	"112 x 126 x 107"	""	""	""	""	""	""	"112x126x107|under 1/2 acre"	"https://www.realtor.ca//real-estate/22116899/47-hickory-place-unitlot-11-conception-bay-south"
"1217737"	"324900"	"House"	"Freehold"	"2264"	"2"	"3"	"3"	0	"13 Alberton Drive"	"A1L1Y8"	"-52.891436"	"47.523975"	""	"Attached Garage"	""	""	""	""	""	"422 sq. m.|4,051 - 7,250 sqft"	"https://www.realtor.ca//real-estate/22116904/13-alberton-drive-paradise"
"1217657"	"319900"	"House"	"Freehold"	"2124"	"1"	"2"	"3"	0	"42 Oaken Drive"	"A1X0B9"	"-53.027776"	"47.485009"	"54 x 110"	""	""	""	""	""	""	"APPROX 54 X 110|4,051 - 7,250 sqft"	"https://www.realtor.ca//real-estate/22111433/42-oaken-drive-conception-bay-south"
"1217616"	"314900"	"House"	"Freehold"	"2166"	"1"	"2"	"3"	"1"	"70 Fox Avenue"	"A1B2J2"	"-52.733259"	"47.589966"	"52 x 100"	"Detached Garage"	""	""	""	""	""	"52 x 100|under 1/2 acre"	"https://www.realtor.ca//real-estate/22107707/70-fox-avenue-st-johns"
"1217596"	"339000"	"House"	"Freehold"	"2705"	"2"	"3"	"3"	0	"44 Penney Crescent"	"A1A5H3"	"-52.720213"	"47.601065"	"100 x 50"	""	""	""	""	""	""	"100 x 50|under 1/2 acre"	"https://www.realtor.ca//real-estate/22107716/44-penney-crescent-st-johns"
"1217576"	"278000"	"House"	"Freehold"	"1800"	"2"	"4"	"3"	0	"63 Pearce Avenue"	"A1E3C4"	"-52.734115"	"47.553173"	""	""	""	""	""	""	""	"0.10ac|4,051 - 7,250 sqft"	"https://www.realtor.ca//real-estate/22107730/63-pearce-avenue-st-johns"
"1217525"	"279900"	"House"		"2128"	"1"	"1"	"2"	0	"130 Cherry Lane"	"A1W3B6"	"-52.957695"	"47.529236"	""	""	""	""	""	""	""	"130 X 182 X 123 X 132 (Approx)|10,890 - 21,799 sqft (1/4 - 1/2 ac)"	"https://www.realtor.ca//real-estate/22105885/130-cherry-lane-conception-bay-south"
"1217523"	"264900"	"House"	"Freehold"	"2570"	"1"	"2"	"3"	0	"21 Blue River Place"	"A1E6C3"	"-52.744529"	"47.532571"	"45.8 x 98.4 x 49.2 x 98.2"	""	""	""	""	""	""	"45.8x98.4x49.2x98.2|4,051 - 7,250 sqft"	"https://www.realtor.ca//real-estate/22105886/21-blue-river-place-st-johns"
"1217531"	"244900"	"House"	"Freehold"	"2460"	"1"	"2"	"3"	0	"47 Boones Road"	"A0A3V0"	"-53.272479"	"47.534854"	"60 x 160"	""	""	""	""	""	""	"60 x 160'|under 1/2 acre"	"https://www.realtor.ca//real-estate/22102309/47-boones-road-south-river"
"1217515"	"354900"	"House"	"Freehold"	"2244"	"2"	"3"	"3"	0	"113 Diamond Marsh Drive"	"A1H0M7"	"-52.79741"	"47.495649"	"53 x 92"	""	""	""	""	""	""	"53'x92'|4,051 - 7,250 sqft"	"https://www.realtor.ca//real-estate/22102314/113-diamond-marsh-drive-st-johns"
"1217489"	"279900"	"House"	"Freehold"	"1747"	"1"	"2"	"2"	0	"20 Phoenix Drive"	"A1L4H9"	"-52.89138"	"47.551983"	"50 x 100"	""	""	""	""	""	""	"50x100|under 1/2 acre"	"https://www.realtor.ca//real-estate/22102332/20-phoenix-drive-conception-bay-south"
"1217524"	"269900"	"House"	"Freehold"	"2327"	"1"	"2"	"3"	0	"15-17 Gosses Road"	"A0A3X0"	"-53.289991"	"47.602241"	""	"Attached Garage"	""	"Garage"	"1"	""	""	"63 x 140 (0.2 Acres)|under 1/2 acre"	"https://www.realtor.ca//real-estate/22102311/15-17-gosses-road-spaniards-bay"
"1217521"	"249900"	"House"	"Freehold"	"2400"	"1"	"2"	"3"	0	"3 Caroline Place"	"A0A3X0"	"-53.290581"	"47.601799"	""	"Detached Garage"	""	"Garage"	"1"	""	""	"35 x 171 x 163 x 106 (1/4 Acre)|under 1/2 acre"	"https://www.realtor.ca//real-estate/22102312/3-caroline-place-spaniards-bay"
"23670231"	"219000"	"House"		""	"1"	"2"	"3"	0	"804 Rue St-viateur"	"G0L1X0"	"-68.78905"	"47.61092"	""	"Other"	""	""	""	""	""	"2179.3 m2"	"https://www.realtor.ca//real-estate/22091042/804-rue-st-viateur-témiscouata-sur-le-lac-notre-dame-du-lac"
"21840601"	"249000"	"House"		""	"2"	"1"	"3"	0	"85 Route 132 O."	"G0L2R0"	"-69.95056739"	"47.48658954"	""	""	""	""	""	""	""	"86.38X28.96irr"	"https://www.realtor.ca//real-estate/22091031/85-route-132-o-saint-denis-de-la-bouteillerie"
"14893945"	"279000"	"House"		""	"1.5000"	"1"	"2"	0	"2170 Ch. De L'anse-au-sac"	"G0T1V0"	"-70.21070856"	"47.51688292"	""	""	""	""	""	""	""	"7284.9 m2"	"https://www.realtor.ca//real-estate/22090002/2170-ch-de-lanse-au-sac-saint-irénée"
"1217364"	"359900"	"House"	"Freehold"	"2904"	"1"	"3"	"3"	0	"27 Densmore's Lane"	"A1G1J8"	"-52.745609"	"47.518481"	"75 x 131"	""	""	""	""	""	""	"75'x131'|7,251 - 10,889 sqft"	"https://www.realtor.ca//real-estate/22087579/27-densmores-lane-st-johns"
"1217355"	"350000"	"House"	"Freehold"	"3960"	"1"	"4"	"6"	0	"71 Valleyview Road"	"A1G1N1"	"-52.754449"	"47.499683"	""	""	""	""	""	""	""	"2193 square metres|.5 - 9.99 acres"	"https://www.realtor.ca//real-estate/22086695/71-valleyview-road-st-johns"
"1217315"	"329900"	"House"	"Freehold"	"3874"	"2"	"4"	"5"	"1"	"161 Old Pennywell Road"	"A1B1A8"	"-52.756049"	"47.554475"	"120 x 210"	"Attached Garage"	""	"Garage"	"2"	""	""	"120x210|under 1/2 acre"	"https://www.realtor.ca//real-estate/22083980/161-old-pennywell-road-st-johns"
"1217082"	"240000"	"House"	"Freehold"	"2700"	"1"	"3"	"4"	0	"285 Pennywell Road"	"A1C2M5"	"-52.729964"	"47.558713"	"50 x 77"	""	""	""	""	""	""	"50' x 77'|under 1/2 acre"	"https://www.realtor.ca//real-estate/22075990/285-pennywell-road-st-johns"
"1217176"	"229999"	"House"	"Freehold"	"2400"	"1"	"2"	"3"	"1"	"76 Legrow Street"	"A0M1C0"	"-59.169935"	"47.584421"	"50 x 100"	""	""	""	""	""	""	"50 x 100|4,051 - 7,250 sqft"	"https://www.realtor.ca//real-estate/22075984/76-legrow-street-port-aux-basques"
"1217204"	"264900"	"House"	"Freehold"	"2154"	"1"	"2"	"2"	0	"31 Farmland Lane"	"A1x7l7"	"-52.99914"	"47.494123"	"52. x 119 x 54 x 119"	"Detached Garage"	""	""	""	""	""	"52.X119X54X119|4,051 - 7,250 sqft"	"https://www.realtor.ca//real-estate/22075968/31-farmland-lane-conception-bay-south"
"1212083"	"289000"	"House"	"Freehold"	"2573"	"2"	"3"	"3"	0	"12 Emerald Creek Drive"	"A1X2E9"	"-52.994274"	"47.488414"	"60 x 110"	""	""	""	""	""	""	"60X110"	"https://www.realtor.ca//real-estate/22075998/12-emerald-creek-drive-conception-bay-south"
"1216917"	"319900"	"House"	"Freehold"	"2244"	"2"	"3"	"3"	0	"34 Mercury Street"	"A1L4x6"	"-52.903019"	"47.542539"	""	""	""	""	""	""	""	"50 x 100 Appro|4,051 - 7,250 sqft"	"https://www.realtor.ca//real-estate/22072251/34-mercury-street-paradise"
"1205583"	"299900"	"House"	"Freehold"	"1544"	"1"	"2"	"2"	0	"61 Maurice Putt Crescent"	"A1B0S3"	"-52.787906"	"47.552316"	""	"Garage"	"1"	""	""	""	""	"450 M sq.|4,051 - 7,250 sqft"	"https://www.realtor.ca//real-estate/22070376/61-maurice-putt-crescent-st-johns"
"1217133"	"249900"	"House"	"Freehold"	"1535"	"1"	"1"	"3"	0	"8 Sinnott Place"	"A1G1L2"	"-52.756179"	"47.507089"	"52 x 105"	""	""	""	""	""	""	"52x105|4,051 - 7,250 sqft"	"https://www.realtor.ca//real-estate/22070353/8-sinnott-place-st-johns"
"1216642"	"254900"	"House"	"Freehold"	"2660"	"1"	"2"	"3"	0	"9 Shea Place"	"A0A1G0"	"-53.283434"	"47.583365"	"71.5 x 97.1 x 72.5 x 104.3"	""	""	""	""	""	""	"71.5 X 97.1 X 72.5 X 104.3|4,051 - 7,250 sqft"	"https://www.realtor.ca//real-estate/22069556/9-shea-place-bay-roberts"
"1217078"	"269900"	"House"	"Freehold"	"1896"	"1"	"2"	"2"	0	"106 Cole Thomas Drive"	"A1X0H4"	"-53.041941"	"47.478099"	""	""	""	""	""	""	""	"approx 50 x 100"	"https://www.realtor.ca//real-estate/22066672/106-cole-thomas-drive-conception-bay-south"
"1217070"	"238000"	"House"	"Freehold"	"1950"	"1"	"2"	"3"	0	"74 Smallwood Drive"	"A1N1B1"	"-52.797911"	"47.516458"	"50 x 100"	"Attached Garage"	""	"Garage"	"1"	""	""	"50x100|4,051 - 7,250 sqft"	"https://www.realtor.ca//real-estate/22066677/74-smallwood-drive-mount-pearl"
"1217053"	"259900"	"House"	"Freehold"	"1824"	"1"	"2"	"3"	0	"22 Beauford Place"	"A1A5B4"	"-52.724981"	"47.612283"	"40 x 98"	""	""	""	""	""	""	"40 x 98|0-4,050 sqft"	"https://www.realtor.ca//real-estate/22064888/22-beauford-place-st-johns"
"1217002"	"364900"	"House"	"Freehold"	"2600"	"1"	"2"	"2"	"1"	"49 Stapleton Road"	"A1L3V1"	"-52.895178"	"47.575794"	"106.3 x 240 x 101 x 208"	""	""	""	""	""	""	"106.3 x 240 x 101 x 208|32,670 - 43,559 sqft (3/4 - 1 ac)"	"https://www.realtor.ca//real-estate/22064084/49-stapleton-road-paradise"
"1216988"	"339900"	"House"	"Freehold"	"3360"	"2"	"3"	"4"	0	"49 Jasper Street"	"A1A4B5"	"-52.711665"	"47.597813"	"50 x 100"	""	""	""	""	""	""	"50x100|under 1/2 acre"	"https://www.realtor.ca//real-estate/22058421/49-jasper-street-st-johns"
"1216990"	"209900"	"House"	"Freehold"	"2104"	"1"	"2"	"3"	"1"	"3 Oxen Pond Road"	"A1B3H9"	"-52.742549"	"47.563211"	""	""	""	""	""	""	""	"676.2 sq. m|under 1/2 acre"	"https://www.realtor.ca//real-estate/22058419/3-oxen-pond-road-st-johns"
"1216645"	"289900"	"House"	"Freehold"	"2240"	"1"	"2"	"3"	"1"	"5 Britanolia Place"	"A1X2E2"	"-52.997833"	"47.502656"	""	""	""	""	""	""	""	"1/2 Acre"	"https://www.realtor.ca//real-estate/22058428/5-britanolia-place-conception-bay-south"
"1216957"	"349900"	"House"	"Freehold"	"2060"	"1"	"1"	"3"	0	"123 Beachy Cove Road"	"A1M2E7"	"-52.864662"	"47.619468"	"4.82 acres"	""	""	""	""	""	""	"4.82 Acres|3 - 10 acres"	"https://www.realtor.ca//real-estate/22056553/123-beachy-cove-road-portugal-cove-st-philips"
"1216963"	"339900"	"House"	"Freehold"	"2157"	"1"	"2"	"3"	"1"	"26 Challenger Crescent"	"A1L4B9"	"-52.893624"	"47.538773"	"50 x 100"	"Attached Garage"	""	""	""	""	""	"50 x 100|0-4,050 sqft"	"https://www.realtor.ca//real-estate/22056549/26-challenger-crescent-paradise"
"1216949"	"299900"	"House"	"Freehold"	"2100"	"1"	"2"	"2"	"1"	"6 Nonia Street"	"A1B5E9"	"-52.792623"	"47.547573"	"50 x 100"	""	""	""	""	""	""	"50 x 100|4,051 - 7,250 sqft"	"https://www.realtor.ca//real-estate/22055639/6-nonia-street-s-johns"
"1216916"	"259900"	"House"	"Freehold"	"2100"	"2.5000"	"3"	"3"	0	"7 Elliots Place"	"A1W3C1"	"-52.957532"	"47.517462"	""	"Other"	""	""	""	""	""	"349 sq m|0-4,050 sqft"	"https://www.realtor.ca//real-estate/22052400/7-elliots-place-conception-bay-south"
"1216896"	"209500"	"House"	"Freehold"	"1050"	"1"	"1"	"3"	0	"16 Firgreen Avenue"	"A1N1T7"	"-52.800166"	"47.517762"	"50 x 167"	""	""	""	""	""	""	"50X167|under 1/2 acre"	"https://www.realtor.ca//real-estate/22050279/16-firgreen-avenue-mt-pearl"
"1216798"	"249900"	"House"	"Freehold"	"2150"	"1"	"2"	"3"	0	"2381 Topsail Road"	"A1W2G9"	"-52.929527"	"47.539583"	"81 x 100 x 77 x 112"	""	""	""	""	""	""	"81x100x77x112|7,251 - 10,889 sqft"	"https://www.realtor.ca//real-estate/22050314/2381-topsail-road-conception-bay-south"
"1216882"	"349900"	"House"	"Freehold"	"3200"	"1"	"4"	"3"	"2"	"36 Badcock Boulevard"	"A0A1G0"	"-53.288238"	"47.583114"	"72 x 115"	""	""	""	""	""	""	"72 x 115 Approx|under 1/2 acre"	"https://www.realtor.ca//real-estate/22050293/36-badcock-boulevard-bay-roberts"
"1211964"	"319000"	"House"	"Freehold"	"1986"	"1"	"3"	"3"	0	"33 Valley View Road"	"A0A1K0"	"-53.222917"	"47.501328"	""	"Attached Garage"	""	""	""	""	""	"0.687 Acres"	"https://www.realtor.ca//real-estate/22049293/33-valley-view-road-brigus"
